{
  "guia": "España 2025",
  "total_restaurantes_con_estrella": 291,
  "restaurantes": [
    {
      "nombre": "Casa Marcial",
      "estrellas": 3,
      "ciudad": "Arriondas (Asturias)",
      "latitud": 43.4153,
      "longitud": -5.1629,
      "novedad": "Nueva 3ª estrella 2025"
    },
    {
      "nombre": "DiverXO",
      "estrellas": 3,
      "ciudad": "Madrid",
      "latitud": 40.4188,
      "longitud": -3.7018,
      "novedad": "Nueva 3ª estrella 2025"
    },
    {
      "nombre": "Disfrutar",
      "estrellas": 3,
      "ciudad": "Barcelona",
      "latitud": 41.3881,
      "longitud": 2.1764,
      "novedad": "Mantiene"
    },
    {
      "nombre": "ABaC by Jordi Cruz",
      "estrellas": 3,
      "ciudad": "Barcelona",
      "latitud": 41.3891,
      "longitud": 2.1774,
      "novedad": "Mantiene"
    },
    {
      "nombre": "Akelarre",
      "estrellas": 3,
      "ciudad": "San Sebastián",
      "latitud": 43.3175,
      "longitud": -2.0208,
      "novedad": "Mantiene"
    },
    {
      "nombre": "Arzak",
      "estrellas": 3,
      "ciudad": "San Sebastián",
      "latitud": 43.3185,
      "longitud": -2.0198,
      "novedad": "Mantiene"
    },
    {
      "nombre": "Azurmendi",
      "estrellas": 3,
      "ciudad": "Larrabetzu",
      "latitud": 43.2721,
      "longitud": -2.7844,
      "novedad": "Mantiene"
    },
    {
      "nombre": "Enoteca Paco Pérez",
      "estrellas": 3,
      "ciudad": "Barcelona",
      "latitud": 41.3931,
      "longitud": 2.1814,
      "novedad": "Mantiene"
    },
    {
      "nombre": "Lasarte",
      "estrellas": 3,
      "ciudad": "Barcelona",
      "latitud": 41.3941,
      "longitud": 2.1824,
      "novedad": "Mantiene"
    },
    {
      "nombre": "Noor",
      "estrellas": 3,
      "ciudad": "Córdoba",
      "latitud": 37.8952,
      "longitud": -4.7684,
      "novedad": "Mantiene"
    },
    {
      "nombre": "Óbalo",
      "estrellas": 3,
      "ciudad": "Santander",
      "latitud": 43.4623,
      "longitud": -3.8099,
      "novedad": "Mantiene"
    },
    {
      "nombre": "Quique Dacosta",
      "estrellas": 3,
      "ciudad": "Dénia",
      "latitud": 38.8536,
      "longitud": 0.1186,
      "novedad": "Mantiene"
    },
    {
      "nombre": "Río Nalón",
      "estrellas": 3,
      "ciudad": "Soto de Luiña",
      "latitud": 43.5552,
      "longitud": -6.1824,
      "novedad": "Mantiene"
    },
    {
      "nombre": "Smoked Room",
      "estrellas": 3,
      "ciudad": "Fuengirola",
      "latitud": 36.5417,
      "longitud": -4.6231,
      "novedad": "Mantiene"
    },
    {
      "nombre": "El Celler de Can Roca",
      "estrellas": 3,
      "ciudad": "Girona",
      "latitud": 41.9934,
      "longitud": 2.8083,
      "novedad": "Mantiene"
    },
    {
      "nombre": "Mugaritz",
      "estrellas": 2,
      "ciudad": "Errenteria",
      "latitud": 43.2825,
      "longitud": -1.9523,
      "novedad": "Mantiene"
    },
    {
      "nombre": "Cinc Sentits",
      "estrellas": 2,
      "ciudad": "Barcelona",
      "latitud": 41.3874,
      "longitud": 2.1668,
      "novedad": "Mantiene"
    },
    {
      "nombre": "Paco Roncero",
      "estrellas": 2,
      "ciudad": "Madrid",
      "latitud": 40.4175,
      "longitud": -3.6860,
      "novedad": "Mantiene"
    },
    {
      "nombre": "Bardal",
      "estrellas": 2,
      "ciudad": "Ronda",
      "latitud": 36.7423,
      "longitud": -5.1654,
      "novedad": "Mantiene"
    },
    {
      "nombre": "Alevante",
      "estrellas": 2,
      "ciudad": "Chiclana de la Frontera",
      "latitud": 36.4200,
      "longitud": -6.1470,
      "novedad": "Nueva"
    },
    {
      "nombre": "Maralba",
      "estrellas": 2,
      "ciudad": "Almansa",
      "latitud": 38.8687,
      "longitud": -1.0963,
      "novedad": "Mantiene"
    },
    {
      "nombre": "Aleia",
      "estrellas": 2,
      "ciudad": "Barcelona",
      "latitud": 41.3965,
      "longitud": 2.1584,
      "novedad": "Nueva"
    },
    {
      "nombre": "Enigma",
      "estrellas": 2,
      "ciudad": "Barcelona",
      "latitud": 41.3768,
      "longitud": 2.1541,
      "novedad": "Nueva"
    },
    {
      "nombre": "Mont Bar",
      "estrellas": 2,
      "ciudad": "Barcelona",
      "latitud": 41.3897,
      "longitud": 2.1594,
      "novedad": "Nueva"
    },
    {
      "nombre": "La Boscana",
      "estrellas": 2,
      "ciudad": "Bellvís",
      "latitud": 41.6708,
      "longitud": 0.8169,
      "novedad": "Nueva"
    },
    {
      "nombre": "Voro",
      "estrellas": 2,
      "ciudad": "Canyamel",
      "latitud": 39.6582,
      "longitud": 3.4449,
      "novedad": "Mantiene"
    },
    {
      "nombre": "L’Escaleta",
      "estrellas": 2,
      "ciudad": "Cocentaina",
      "latitud": 38.7402,
      "longitud": -0.4542,
      "novedad": "Mantiene"
    },
    {
      "nombre": "Bo.TiC",
      "estrellas": 2,
      "ciudad": "Corçà",
      "latitud": 41.9893,
      "longitud": 3.0163,
      "novedad": "Mantiene"
    },
    {
      "nombre": "Venta Moncalvillo",
      "estrellas": 2,
      "ciudad": "Daroca de Rioja",
      "latitud": 42.3711,
      "longitud": -2.5814,
      "novedad": "Mantiene"
    },
    {
      "nombre": "Amelia by Paulo Airaudo",
      "estrellas": 2,
      "ciudad": "Donostia/San Sebastián",
      "latitud": 43.3168,
      "longitud": -1.9845,
      "novedad": "Mantiene"
    },
    {
      "nombre": "Cabaña Buenavista",
      "estrellas": 2,
      "ciudad": "El Palmar",
      "latitud": 37.9405,
      "longitud": -1.1578,
      "novedad": "Mantiene"
    },
    {
      "nombre": "El Portal de Echaurren",
      "estrellas": 2,
      "ciudad": "Ezcaray",
      "latitud": 42.3263,
      "longitud": -3.0125,
      "novedad": "Mantiene"
    },
    {
      "nombre": "El Rincón de Juan Carlos",
      "estrellas": 2,
      "ciudad": "Adeje (Tenerife)",
      "latitud": 28.1008,
      "longitud": -16.7474,
      "novedad": "Mantiene"
    },
    {
      "nombre": "M.B",
      "estrellas": 2,
      "ciudad": "Guía de Isora (Tenerife)",
      "latitud": 28.1713,
      "longitud": -16.8015,
      "novedad": "Mantiene"
    },
    {
      "nombre": "Lú Cocina y Alma",
      "estrellas": 2,
      "ciudad": "Jerez de la Frontera",
      "latitud": 36.6854,
      "longitud": -6.1364,
      "novedad": "Mantiene"
    },
    {
      "nombre": "Miramar",
      "estrellas": 2,
      "ciudad": "Llançà",
      "latitud": 42.3697,
      "longitud": 3.1611,
      "novedad": "Mantiene"
    },
    {
      "nombre": "Coque",
      "estrellas": 2,
      "ciudad": "Madrid",
      "latitud": 40.4307,
      "longitud": -3.6936,
      "novedad": "Mantiene"
    },
    {
      "nombre": "Deessa",
      "estrellas": 2,
      "ciudad": "Madrid",
      "latitud": 40.4154,
      "longitud": -3.6925,
      "novedad": "Mantiene"
    },
    {
      "nombre": "DSTAgE",
      "estrellas": 2,
      "ciudad": "Madrid",
      "latitud": 40.4245,
      "longitud": -3.6975,
      "novedad": "Mantiene"
    },
    {
      "nombre": "Ramón Freixa Atelier",
      "estrellas": 2,
      "ciudad": "Madrid",
      "latitud": 40.4304,
      "longitud": -3.6841,
      "novedad": "Nueva"
    },
    {
      "nombre": "Smoked Room",
      "estrellas": 2,
      "ciudad": "Madrid",
      "latitud": 40.4357,
      "longitud": -3.6905,
      "novedad": "Mantiene"
    },
    {
      "nombre": "Skina",
      "estrellas": 2,
      "ciudad": "Marbella",
      "latitud": 36.5103,
      "longitud": -4.8841,
      "novedad": "Mantiene"
    },
    {
      "nombre": "Culler de Pau",
      "estrellas": 2,
      "ciudad": "O Grove",
      "latitud": 42.4753,
      "longitud": -8.8957,
      "novedad": "Mantiene"
    },
    {
      "nombre": "Les Cols",
      "estrellas": 2,
      "ciudad": "Olot",
      "latitud": 42.1896,
      "longitud": 2.5062,
      "novedad": "Mantiene"
    },
    {
      "nombre": "Pepe Vieira",
      "estrellas": 2,
      "ciudad": "Raxó",
      "latitud": 42.4042,
      "longitud": -8.7492,
      "novedad": "Mantiene"
    },
    {
      "nombre": "Retiro da Costiña",
      "estrellas": 2,
      "ciudad": "Santa Comba",
      "latitud": 43.0361,
      "longitud": -8.8094,
      "novedad": "Mantiene"
    },
    {
      "nombre": "Iván Cerdeño",
      "estrellas": 2,
      "ciudad": "Toledo",
      "latitud": 39.8618,
      "longitud": -4.0461,
      "novedad": "Mantiene"
    },
    {
      "nombre": "El Molino de Urdániz",
      "estrellas": 2,
      "ciudad": "Urdaitz",
      "latitud": 42.9092,
      "longitud": -1.5340,
      "novedad": "Mantiene"
    },
    {
      "nombre": "El Poblet",
      "estrellas": 2,
      "ciudad": "València",
      "latitud": 39.4697,
      "longitud": -0.3752,
      "novedad": "Mantiene"
    },
    {
      "nombre": "Ricard Camarena",
      "estrellas": 2,
      "ciudad": "València",
      "latitud": 39.4839,
      "longitud": -0.3844,
      "novedad": "Mantiene"
    },
    {
      "nombre": "BonAmb",
      "estrellas": 2,
      "ciudad": "Xàbia",
      "latitud": 38.7611,
      "longitud": 0.1636,
      "novedad": "Mantiene"
    }
  ]
}
